{
"Ulge talu veevärk, Estonia": {
"lat": null,
"lon": null,
"miss": true
},
"Toila valla Altküla Pae veevärk, Estonia": {
"lat": null,
"lon": null,
"miss": true
},
"Maidla lasteaia valgus- ja veeteraapia bassein, Estonia": {
"lat": null,
"lon": null,
"miss": true
},
"Tuhamäe hosteli veevärk, Estonia": {
"lat": null,
"lon": null,
"miss": true
},
"Tammistu küla, Öökulli kinnistu veevärk, Estonia": {
"lat": null,
"lon": null,
"miss": true
},
"Pyynikin käsityöläispanimo Oy Eesti filiaali veevärk, Estonia": {
"lat": null,
"lon": null,
"miss": true
},
"Piusa Ürgoru puhkekompleksi veevärk, Estonia": {
"lat": null,
"lon": null,
"miss": true
},
"Nõmme Köögivilja OÜ tootmishoone veevärk, Estonia": {
"lat": null,
"lon": null,
"miss": true
},
"Kalvi Mõisa veevärk, Estonia": {
"lat": null,
"lon": null,
"miss": true
},
"Eistvere jahimaja veevärk, Estonia": {
"lat": null,
"lon": null,
"miss": true
},
"Jokri talu veevärk, Estonia": {
"lat": null,
"lon": null,
"miss": true
},
"Kallaste Turismitalu, Estonia": {
"lat": null,
"lon": null,
"miss": true
},
"Nasva kalatööstuse veevärk, Estonia": {
"lat": null,
"lon": null,
"miss": true
},
"Tõrva Veemõnula 28 kraadine bassein, Estonia": {
"lat": null,
"lon": null,
"miss": true
},
"Tõrva veemõnula 32 kraadine bassein, Estonia": {
"lat": null,
"lon": null,
"miss": true
},
"Prillimäe küla veevärk, Estonia": {
"lat": null,
"lon": null,
"miss": true
},
"Kauksi Puhkeküla veevärk, Estonia": {
"lat": null,
"lon": null,
"miss": true
},
"Turgi talu veevärk, Estonia": {
"lat": null,
"lon": null,
"miss": true
},
"Jurna Turismitalu, Estonia": {
"lat": null,
"lon": null,
"miss": true
},
"Alujoa Puhkekeskuse veevärk, Estonia": {
"lat": null,
"lon": null,
"miss": true
},
"Villa Meretare veevärk, Estonia": {
"lat": null,
"lon": null,
"miss": true
},
"Kuldkaru mõisa veevärk, Estonia": {
"lat": null,
"lon": null,
"miss": true
},
"Käbi Külalistemaja, Estonia": {
"lat": null,
"lon": null,
"miss": true
},
"Vana Olgina Mõisa veevärk, Estonia": {
"lat": null,
"lon": null,
"miss": true
},
"Barto Puhkemaja veevärk, Estonia": {
"lat": null,
"lon": null,
"miss": true
},
"Metsaluige Turismitalu, Estonia": {
"lat": null,
"lon": null,
"miss": true
},
"Kuke Turismitalu, Estonia": {
"lat": null,
"lon": null,
"miss": true
},
"Veldemani Puhkemaja, Estonia": {
"lat": null,
"lon": null,
"miss": true
},
"Kõrvelaane Turismitalu veevärk, Estonia": {
"lat": null,
"lon": null,
"miss": true
},
"Aravete Kardi- ja Vabaajakeskuse veevärk, Estonia": {
"lat": null,
"lon": null,
"miss": true
},
"Endla Turismitalu, Estonia": {
"lat": null,
"lon": null,
"miss": true
},
"Kadrina küla kalatööstuse veevärk, Estonia": {
"lat": null,
"lon": null,
"miss": true
},
"Vana-Koiola järv, Estonia": {
"lat": null,
"lon": null,
"miss": true
},
"Tiiupesa puhkemaja, Estonia": {
"lat": null,
"lon": null,
"miss": true
},
"Katri Külalistemaja, Estonia": {
"lat": null,
"lon": null,
"miss": true
},
"Käbala kämpingu veevärk, Estonia": {
"lat": null,
"lon": null,
"miss": true
},
"Kuru Villa veevärk, Estonia": {
"lat": null,
"lon": null,
"miss": true
},
"Linda Nektari veevärk, Estonia": {
"lat": null,
"lon": null,
"miss": true
},
"Õnnela külalistemaja veevärk, Estonia": {
"lat": null,
"lon": null,
"miss": true
},
"Pariisi puhkeküla-laager veevärk, Estonia": {
"lat": null,
"lon": null,
"miss": true
},
"Arma Ratsatalu veevärk, Estonia": {
"lat": null,
"lon": null,
"miss": true
},
"E-Betoonelement OÜ Tamsalu tehase veevärk, Estonia": {
"lat": null,
"lon": null,
"miss": true
},
"Vaikla Puhkekeskuse veevärk, Estonia": {
"lat": null,
"lon": null,
"miss": true
},
"Vaikla Puhkemaja veevärk (tall), Estonia": {
"lat": null,
"lon": null,
"miss": true
},
"Okka Puhkemaja veevärk, Estonia": {
"lat": null,
"lon": null,
"miss": true
},
"Villa Marika hosteli veevärk, Estonia": {
"lat": null,
"lon": null,
"miss": true
},
"Kuru rannamaja veevärk, Estonia": {
"lat": null,
"lon": null,
"miss": true
},
"Rocca al mare hotelli mullivann, Estonia": {
"lat": null,
"lon": null,
"miss": true
},
"Sae hosteli veevärk, Estonia": {
"lat": null,
"lon": null,
"miss": true
},
"Eisma Külalistemaja veevärk, Estonia": {
"lat": null,
"lon": null,
"miss": true
},
"Karineeme Puhkemaja veevärk, Estonia": {
"lat": null,
"lon": null,
"miss": true
},
"Nurmeveski külalistemaja, Estonia": {
"lat": null,
"lon": null,
"miss": true
},
"Sammuli puhkeküla veevärk, Estonia": {
"lat": null,
"lon": null,
"miss": true
},
"Nina Kordoni Külalistemaja veevärk, Estonia": {
"lat": null,
"lon": null,
"miss": true
},
"Nina Puhkemaja veevärk, Estonia": {
"lat": null,
"lon": null,
"miss": true
},
"Külalistemaja Katariina veevärk, Estonia": {
"lat": null,
"lon": null,
"miss": true
},
"Kuru Puhkemajade veevärk, Estonia": {
"lat": null,
"lon": null,
"miss": true
},
"Männisalu Puhkekeskuse veevärk, Estonia": {
"lat": null,
"lon": null,
"miss": true
},
"Adami talu veevärk, Estonia": {
"lat": null,
"lon": null,
"miss": true
},
"Vigala Piimatööstuse veevärk, Estonia": {
"lat": null,
"lon": null,
"miss": true
},
"Matsu talu külalistemaja veevärk, Estonia": {
"lat": null,
"lon": null,
"miss": true
},
"Villa Andropoff, Estonia": {
"lat": null,
"lon": null,
"miss": true
},
"Porkuni Jahimaja veevärk, Estonia": {
"lat": null,
"lon": null,
"miss": true
},
"Metsaveere Turismitalu veevärk, Estonia": {
"lat": null,
"lon": null,
"miss": true
},
"Samblamäe hosteli veevärk, Estonia": {
"lat": null,
"lon": null,
"miss": true
},
"Mõedaku Puhkekeskuse veevärk, Estonia": {
"lat": null,
"lon": null,
"miss": true
},
"Haljala Maheda veevärk, Estonia": {
"lat": null,
"lon": null,
"miss": true
},
"Kauksi Puhkemaja veevärk, Estonia": {
"lat": null,
"lon": null,
"miss": true
},
"Niinsaare Puhkekeskuse veevärk, Estonia": {
"lat": null,
"lon": null,
"miss": true
},
"Tartu Foods OÜ lihakäitlemisettevõte veevärk, Estonia": {
"lat": null,
"lon": null,
"miss": true
},
"Sootalu tee ühisveevärk, Estonia": {
"lat": null,
"lon": null,
"miss": true
},
"Vettel-i kalatööstuse veevärk, Estonia": {
"lat": null,
"lon": null,
"miss": true
},
"Cautes veevärk, Estonia": {
"lat": null,
"lon": null,
"miss": true
},
"Valkla Ranna veevärk, Estonia": {
"lat": null,
"lon": null,
"miss": true
},
"Viitna puhkekeskuse veevärk, Estonia": {
"lat": null,
"lon": null,
"miss": true
},
"Allika Puhkemaja veevärk, Estonia": {
"lat": null,
"lon": null,
"miss": true
},
"Kuusiku loodustalu veevärk, Estonia": {
"lat": null,
"lon": null,
"miss": true
},
"Motovilla Külalistemaja, Estonia": {
"lat": null,
"lon": null,
"miss": true
},
"Peipsi Puhkemajad, Estonia": {
"lat": null,
"lon": null,
"miss": true
},
"Pilguse Mõisa külalistemaja, Estonia": {
"lat": null,
"lon": null,
"miss": true
},
"Reola- ja Uhti küla ühisveevärk, Estonia": {
"lat": null,
"lon": null,
"miss": true
},
"Kurtna küla osa veevärk, Estonia": {
"lat": null,
"lon": null,
"miss": true
},
"Kure Turismitalu veevärk, Estonia": {
"lat": null,
"lon": null,
"miss": true
},
"Uuemõisa Mesi, Estonia": {
"lat": null,
"lon": null,
"miss": true
},
"Muhu Liha Tulundusühistu, Estonia": {
"lat": null,
"lon": null,
"miss": true
},
"Väike hüdroteraapia bassein, Estonia": {
"lat": null,
"lon": null,
"miss": true
},
"Salvest AS veevärk, Estonia": {
"lat": null,
"lon": null,
"miss": true
},
"Pajumäe talu OÜ veevärk, Estonia": {
"lat": null,
"lon": null,
"miss": true
},
"Külalistemaja \"Kadrina Mõis\" ja Lühikeste Meeste Kõrts, Estonia": {
"lat": null,
"lon": null,
"miss": true
},
"Haage Joogid veevärk, Estonia": {
"lat": null,
"lon": null,
"miss": true
},
"Saarek Productions  AS veevärk, Estonia": {
"lat": null,
"lon": null,
"miss": true
},
"DEMO FARM, Estonia": {
"lat": null,
"lon": null,
"miss": true
},
"Saaremaa Piimatööstuse veevärk, Estonia": {
"lat": null,
"lon": null,
"miss": true
},
"Põnka puhketalu, Estonia": {
"lat": null,
"lon": null,
"miss": true
},
"Maria talu külalistemaja, Estonia": {
"lat": null,
"lon": null,
"miss": true
},
"Laululinnu külalistemaja veevärk, Estonia": {
"lat": null,
"lon": null,
"miss": true
},
"Juulamõisa veevärk, Estonia": {
"lat": null,
"lon": null,
"miss": true
},
"Päkaste küla  veevärk, Estonia": {
"lat": null,
"lon": null,
"miss": true
},
"Metsavenna talu veevärk, Estonia": {
"lat": null,
"lon": null,
"miss": true
},
"Eesti Leivatööstuse ühisveevärk, Estonia": {
"lat": null,
"lon": null,
"miss": true
},
"Perjatsi majutusettevõte veevärk, Estonia": {
"lat": null,
"lon": null,
"miss": true
},
"Green Motell, Estonia": {
"lat": null,
"lon": null,
"miss": true
},
"Raudsepa Gemuse OÜ tootmishoone veevärk, Estonia": {
"lat": null,
"lon": null,
"miss": true
},
"Kruusaaugu talu veevärk, Estonia": {
"lat": null,
"lon": null,
"miss": true
},
"ALREY OÜ  tootmishoone veevärk, Estonia": {
"lat": null,
"lon": null,
"miss": true
},
"Uueda puhkekeskus, Estonia": {
"lat": null,
"lon": null,
"miss": true
},
"Valgehobusemäe Suusa- ja Puhkekeskuse veevärk, Estonia": {
"lat": null,
"lon": null,
"miss": true
},
"Kuninga talu veevärk, Estonia": {
"lat": null,
"lon": null,
"miss": true
},
"Madi talu veevärk, Estonia": {
"lat": null,
"lon": null,
"miss": true
},
"Puurkaev nr 1 — Nr 1 .Puurkaevu kraan, Estonia": {
"lat": null,
"lon": null,
"miss": true
},
"HKScan Estonia Rakvere Lihakombinaadi veevärk, Estonia": {
"lat": null,
"lon": null,
"miss": true
},
"Tammistu lihatööstuse veevärk, Estonia": {
"lat": null,
"lon": null,
"miss": true
},
"Kaatri Puhkemaja veevärk, Estonia": {
"lat": null,
"lon": null,
"miss": true
},
"Markna talu, Estonia": {
"lat": null,
"lon": null,
"miss": true
},
"Värska Vesi AS mineraalvee tsehhi veevärk (mineraalvesi), Estonia": {
"lat": null,
"lon": null,
"miss": true
},
"Luhtre Turismitalu veevärk, Estonia": {
"lat": null,
"lon": null,
"miss": true
},
"Puhu-Risti söögimaja veevärk, Estonia": {
"lat": null,
"lon": null,
"miss": true
},
"Sõpruse tee 15, 74001 Haabneeme alevik, Viimsi vald, Harju maakond, Eesti": {
"lat": null,
"lon": null,
"miss": true
},
"Viimsi MyFitness mullivann, Estonia": {
"lat": null,
"lon": null,
"miss": true
},
"Rannarootsi lihatööstus, Estonia": {
"lat": null,
"lon": null,
"miss": true
},
"Puhja aleviku Kellani ühisveevärk, Estonia": {
"lat": null,
"lon": null,
"miss": true
},
"Otepää Lihatööstuse Edgar ühisveevärk, Estonia": {
"lat": null,
"lon": null,
"miss": true
},
"Est-Agari veevärk, Estonia": {
"lat": null,
"lon": null,
"miss": true
},
"Pädaste Mõis, Estonia": {
"lat": null,
"lon": null,
"miss": true
},
"Loksa Lasteaed Õnnetriinu, Estonia": {
"lat": null,
"lon": null,
"miss": true
},
"Piibe tare (söögitare kinnistu) veevärk, Estonia": {
"lat": null,
"lon": null,
"miss": true
},
"Kloogaranna noortelaager, Estonia": {
"lat": null,
"lon": null,
"miss": true
},
"Spordiklubi Impuls bassein, Estonia": {
"lat": null,
"lon": null,
"miss": true
},
"Pirita Spordikeskuse suur bassein, Estonia": {
"lat": null,
"lon": null,
"miss": true
},
"Pirita Spordikeskuse väike bassein, Estonia": {
"lat": null,
"lon": null,
"miss": true
},
"Võhma teeristi toidutare veevärk, Estonia": {
"lat": null,
"lon": null,
"miss": true
},
"OÜ Elujõud (Energia Talu) veevärk, Estonia": {
"lat": null,
"lon": null,
"miss": true
},
"Ilmatsalu aleviku ühisveevärk, Estonia": {
"lat": null,
"lon": null,
"miss": true
},
"Õssu küla , Märja aleviku, Haage- ja Räni küla ühisveevärk, Estonia": {
"lat": null,
"lon": null,
"miss": true
},
"Astangu Kutserehabilitatsioonikeskuse väikebassein, Estonia": {
"lat": null,
"lon": null,
"miss": true
},
"Laugu Turismitalu, Estonia": {
"lat": null,
"lon": null,
"miss": true
},
"Suure-Jaani Tervisekoda väike nn beebibassein (ühtses süsteemis mullivanniga), Estonia": {
"lat": null,
"lon": null,
"miss": true
},
"Koidula raudteejaama ja maanteepiiripunkti ühisveevärk, Estonia": {
"lat": null,
"lon": null,
"miss": true
},
"Ruunawere Hotell OÜ veevärk, Estonia": {
"lat": null,
"lon": null,
"miss": true
},
"Vastse-Kuuste tootmisüksuse veevärk, Estonia": {
"lat": null,
"lon": null,
"miss": true
},
"Ranna-Villa, Estonia": {
"lat": null,
"lon": null,
"miss": true
},
"L. Koidula tn 21, 29023 Narva-Jõesuu linn, Narva-Jõesuu linn, Eesti": {
"lat": null,
"lon": null,
"miss": true
},
"Noorus Spa Inn põhibassein, Estonia": {
"lat": null,
"lon": null,
"miss": true
},
"Noorus Spa Inn soolabassein, Estonia": {
"lat": null,
"lon": null,
"miss": true
},
"Noorus Spa Inn lastebassein mullivanniga, Estonia": {
"lat": null,
"lon": null,
"miss": true
},
"Tolli turismitalu, Estonia": {
"lat": null,
"lon": null,
"miss": true
},
"Cantervilla Lossi ühisveevärk, Estonia": {
"lat": null,
"lon": null,
"miss": true
},
"Kukka Puhkemaja veevärk, Estonia": {
"lat": null,
"lon": null,
"miss": true
},
"Lepanina hotell, Estonia": {
"lat": null,
"lon": null,
"miss": true
},
"Vaibla puhkekeskus, Estonia": {
"lat": null,
"lon": null,
"miss": true
},
"Rannakodu, Estonia": {
"lat": null,
"lon": null,
"miss": true
},
"Tiheda küla veevärk, Estonia": {
"lat": null,
"lon": null,
"miss": true
},
"Arbavere Puhkekeskuse veevärk, Estonia": {
"lat": null,
"lon": null,
"miss": true
},
"Koke Külalistemaja, Estonia": {
"lat": null,
"lon": null,
"miss": true
},
"Linaküla rannakämping, Estonia": {
"lat": null,
"lon": null,
"miss": true
},
"OÜ Krantsi Kõrts, Estonia": {
"lat": null,
"lon": null,
"miss": true
},
"Tehumardi Puhkekeskuse veevärk, Estonia": {
"lat": null,
"lon": null,
"miss": true
},
"Tõnise Majatalo, Estonia": {
"lat": null,
"lon": null,
"miss": true
},
"vSpa külma vee veesilm, Estonia": {
"lat": null,
"lon": null,
"miss": true
},
"Kõrvemaa Matka- ja Suusakeskus, Estonia": {
"lat": null,
"lon": null,
"miss": true
},
"Adu-Jaani Kodumajutus, Estonia": {
"lat": null,
"lon": null,
"miss": true
},
"Tui kodurestoran, Estonia": {
"lat": null,
"lon": null,
"miss": true
},
"Kildu ratsakeskuse-külalistemaja veevärk, Estonia": {
"lat": null,
"lon": null,
"miss": true
},
"Lustivere paisjärv Umbusi jõel, Estonia": {
"lat": null,
"lon": null,
"miss": true
},
"Eametsa küla Puti elamurajooni veevärk, Estonia": {
"lat": null,
"lon": null,
"miss": true
},
"Pulga oja Elva paisjärve supluskoht, Estonia": {
"lat": null,
"lon": null,
"miss": true
},
"Metsavenna Meierei veevärk, Estonia": {
"lat": null,
"lon": null,
"miss": true
},
"Vehendi Motell, Estonia": {
"lat": null,
"lon": null,
"miss": true
},
"Kosmonautika Puhkekeskus, Estonia": {
"lat": null,
"lon": null,
"miss": true
},
"Toosikannu veevärk, Estonia": {
"lat": null,
"lon": null,
"miss": true
},
"Varbla puhkeküla, Estonia": {
"lat": null,
"lon": null,
"miss": true
},
"Mullivann, Estonia": {
"lat": null,
"lon": null,
"miss": true
},
"Venevere puhkeküla, Estonia": {
"lat": null,
"lon": null,
"miss": true
},
"Adila heaolu- ja puhkekeskus, Estonia": {
"lat": null,
"lon": null,
"miss": true
},
"Oja Kämping, Estonia": {
"lat": null,
"lon": null,
"miss": true
},
"DGM SHIPPING AS kalatööstus, Estonia": {
"lat": null,
"lon": null,
"miss": true
},
"Tihuse Hobuturismi talu veevärk, Estonia": {
"lat": null,
"lon": null,
"miss": true
},
"Uugi talu veevärk, Estonia": {
"lat": null,
"lon": null,
"miss": true
},
"AS HKScan Estonia tapamaja veevärk, Estonia": {
"lat": null,
"lon": null,
"miss": true
},
"Verska Mineraalvee tsehhi kraan peale veetöötlust (pk 10), Estonia": {
"lat": null,
"lon": null,
"miss": true
},
"Muratsi Puhkemaja, Estonia": {
"lat": null,
"lon": null,
"miss": true
},
"Kuuli talu puhkemajad, Estonia": {
"lat": null,
"lon": null,
"miss": true
},
"lastebassein, Estonia": {
"lat": null,
"lon": null,
"miss": true
},
"Ranna puhkemaja veevärk, Estonia": {
"lat": null,
"lon": null,
"miss": true
},
"Vanatoa Turismitalu veevärk, Estonia": {
"lat": null,
"lon": null,
"miss": true
},
"Tõnise talu puhkemajad, Estonia": {
"lat": null,
"lon": null,
"miss": true
},
"Oitme Matkamaja, Estonia": {
"lat": null,
"lon": null,
"miss": true
},
"Kuivastu Jaani talu, Estonia": {
"lat": null,
"lon": null,
"miss": true
},
"Vinkli tn, Tartu linn, Tartu linn, Tartu maakond ladude ühisveevärk, Estonia": {
"lat": null,
"lon": null,
"miss": true
},
"Tartumaa Tervisespordikeskuse veevärk, Estonia": {
"lat": null,
"lon": null,
"miss": true
},
"Waide motelli veevärk, Estonia": {
"lat": null,
"lon": null,
"miss": true
},
"Kalamaja Hostel, Estonia": {
"lat": null,
"lon": null,
"miss": true
},
"Sadama talu, Estonia": {
"lat": null,
"lon": null,
"miss": true
},
"Mäo Invest AS-i ühisveevärk, Estonia": {
"lat": null,
"lon": null,
"miss": true
},
"Rae puhkemaja veevärk, Estonia": {
"lat": null,
"lon": null,
"miss": true
},
"Veskisilla Hotelli (kinnistu) veevärk, Estonia": {
"lat": null,
"lon": null,
"miss": true
},
"Laeva Meierei veevärk, Estonia": {
"lat": null,
"lon": null,
"miss": true
},
"Greete Motelli veevärk, Estonia": {
"lat": null,
"lon": null,
"miss": true
},
"Värava talu, Estonia": {
"lat": null,
"lon": null,
"miss": true
},
"Bassein, Estonia": {
"lat": null,
"lon": null,
"miss": true
},
"Veski külalistemaja kohvik, Estonia": {
"lat": null,
"lon": null,
"miss": true
},
"Flexa Eesti AS Viru-Nigula tehase veevärk, Estonia": {
"lat": null,
"lon": null,
"miss": true
},
"Ermistu puhkeküla, Estonia": {
"lat": 58.3546773,
"lon": 24.0027971,
"coord_source": "geoapify",
"matched_address": "Ermistu Puhkeküla, Kalli — Tõstamaa — Värati, 88105 Pärnu linn, Eesti",
"confidence": 0.9
},
"Voore Puhkekeskuse veevärk, Estonia": {
"lat": 58.71528,
"lon": 26.75139,
"coord_source": "geoapify",
"matched_address": "Voore, Mustvee, Eesti",
"confidence": 1.0
},
"Mokko turismitalu veevärk, Estonia": {
"lat": null,
"lon": null,
"miss": true
},
"Tammemäe külalistemaja veevärgivesi, Estonia": {
"lat": null,
"lon": null,
"miss": true
},
"AS E-Piim tootmine Põltsamaa E-Piim veevärk, Estonia": {
"lat": null,
"lon": null,
"miss": true
},
"OÜ Suure-Jaani Vorstitööstuse veevärk, Estonia": {
"lat": null,
"lon": null,
"miss": true
},
"Tere AS Viljandi Tootmisosakond, Estonia": {
"lat": 58.363478,
"lon": 25.572301,
"coord_source": "geoapify",
"matched_address": "Tere AS Viljandi, Raua 6, 71020 Viljandi, Eesti",
"confidence": 0.631578947368421
},
"Puurkaev 66616 Jõulumäe Tervisespordikeskus — Jõulumäe uus puurkaev (66616), Estonia": {
"lat": null,
"lon": null,
"miss": true
},
"Urvaste Kooli ühisveevärk, Estonia": {
"lat": null,
"lon": null,
"miss": true
},
"Varese Külalistemaja veevärk, Estonia": {
"lat": 58.57502,
"lon": 22.399764,
"coord_source": "geoapify",
"matched_address": "Varese sadam, 93633 Saaremaa vald, Eesti",
"confidence": 1.0
},
"Roosu talu vabaajakeskuse veevärk, Estonia": {
"lat": 57.9063496,
"lon": 26.7504515,
"coord_source": "geoapify",
"matched_address": "Roosu Talu, Kurvitsa — Hutita, 66603 Sulbi, Eesti",
"confidence": 0.45
},
"Uhtjärve Ürgoru Nõiariigi veevärk, Estonia": {
"lat": null,
"lon": null,
"miss": true
},
"Puhkekeskus Suvi veevärk, Estonia": {
"lat": null,
"lon": null,
"miss": true
},
"Aasa Haldus veevärk, Estonia": {
"lat": null,
"lon": null,
"miss": true
},
"Koogi paisjärv, Estonia": {
"lat": 58.57222,
"lon": 26.48694,
"coord_source": "geoapify",
"matched_address": "Koogi, Eesti",
"confidence": 0.5
},
"Piiri tn 2, 48307 Jõgeva linn, Jõgeva vald, Jõgeva maakond, Eesti": {
"lat": null,
"lon": null,
"miss": true
},
"Hariduse tn 15b, 20303 Narva linn, Eesti": {
"lat": null,
"lon": null,
"miss": true
},
"Unimäe puurkaev nr. 3 — Proovivõtukraan, Estonia": {
"lat": null,
"lon": null,
"miss": true
},
"Vilja tn 34/4-10, Võru linn, Eesti": {
"lat": null,
"lon": null,
"miss": true
},
"Ülemiste järv — Ülemiste järv, VPJ sissevool, Estonia": {
"lat": null,
"lon": null,
"miss": true
},
"Suislepa küla, Viljandi vald, Viljandi maakond, Eesti": {
"lat": null,
"lon": null,
"miss": true
},
"Koolimaja, Lipa küla, Rapla vald, Rapla maakond, Eesti": {
"lat": null,
"lon": null,
"miss": true
},
"Mihkli/1, 63504 Karaski küla, Kanepi vald, Põlva maakond, Eesti": {
"lat": null,
"lon": null,
"miss": true
},
"Ropka järv, Estonia": {
"lat": 58.320914,
"lon": 26.616685,
"coord_source": "geoapify",
"matched_address": "Ropka järv, Külitse, Kambja, Eesti",
"confidence": 0.81
},
"Rebala küla, Jõelähtme vald, Harju maakond, Eesti": {
"lat": null,
"lon": null,
"miss": true
},
"Ülemiste järv — Ülemiste veepuhastusjaam, töötlemata toorvesi (veeallikast), Estonia": {
"lat": 59.404699,
"lon": 24.774748,
"coord_source": "geoapify",
"matched_address": "Ülemiste järv, Juhkentali, Tallinn, Eesti",
"confidence": 0.5850000000000001
},
"Veski, 46705 Lavi küla, Vinni vald, Lääne-Viru maakond, Eesti": {
"lat": null,
"lon": null,
"miss": true
},
"Ruusamäe, Ruusmäe küla, Rõuge vald, Võru maakond, Eesti": {
"lat": null,
"lon": null,
"miss": true
},
"Sika kaev, Andre küla, Põlva vald, Põlva maakond, Eesti": {
"lat": null,
"lon": null,
"miss": true
},
"Katse tn 2, 30327 Järve linnaosa, Kohtla-Järve linn, Eesti": {
"lat": 59.39949,
"lon": 27.293106,
"coord_source": "geoapify",
"matched_address": "Katse Tänav 2, Järve linnaosa, 30327 Kohtla-Järve linn, Eesti",
"confidence": 1.0
},
"Asuja tee 9, Häädemeeste alevik, Häädemeeste vald, Pärnu maakond, Eesti": {
"lat": 58.0757245,
"lon": 24.5033804,
"coord_source": "geoapify",
"matched_address": "Asuja tee 9, 86006 Häädemeeste, Eesti",
"confidence": 0.5
},
"Inju küla, Vinni vald, Lääne-Viru maakond, Eesti": {
"lat": 59.2673301,
"lon": 26.3704365,
"coord_source": "geoapify",
"matched_address": "Inju küla, 46619 Vinni vald, Eesti",
"confidence": 0.5
},
"Jahimaja, 44014 Linnuse küla, Viru-Nigula vald, Lääne-Viru maakond, Eesti": {
"lat": 59.4616761,
"lon": 26.5481187,
"coord_source": "geoapify",
"matched_address": "Jahimaja, Linnuse, Kunda mõis–Sämi, 44014 Kunda, Eesti",
"confidence": 1.0
},
"Auvere küla, Narva-Jõesuu linn, Eesti": {
"lat": 59.311737,
"lon": 27.926394,
"coord_source": "geoapify",
"matched_address": "Auvere küla, 40107 Narva-Jõesuu linn, Eesti",
"confidence": 0.63
},
"Olgina alevik, Narva-Jõesuu linn, Eesti": {
"lat": 59.3944954,
"lon": 28.1279034,
"coord_source": "geoapify",
"matched_address": "Olgina alevik, Eesti",
"confidence": 1.0
},
"Karla küla, Kose vald, Harju maakond, Eesti": {
"lat": 59.1595864,
"lon": 25.1203595,
"coord_source": "geoapify",
"matched_address": "Karla küla, 75106 Kose vald, Eesti",
"confidence": 1.0
},
"Intsu küla, Viljandi vald, Viljandi maakond, Eesti": {
"lat": 58.296448,
"lon": 25.5996698,
"coord_source": "geoapify",
"matched_address": "Intsu küla, 69611 Viljandi vald, Eesti",
"confidence": 1.0
},
"Lümanda-Kulli küla, Saaremaa vald, Saare maakond, Eesti": {
"lat": 58.3201384,
"lon": 22.0117986,
"coord_source": "geoapify",
"matched_address": "Lümanda-Kulli küla, 93341 Saaremaa vald, Eesti",
"confidence": 1.0
},
"Variku küla, Lääne-Nigula vald, Lääne maakond, Eesti": {
"lat": 59.1186048,
"lon": 23.8053138,
"coord_source": "geoapify",
"matched_address": "Variku küla, 91106 Lääne-Nigula vald, Eesti",
"confidence": 0.5
},
"Nelijärve tn, Aegviidu alev, Anija vald, Harju maakond, Eesti": {
"lat": 59.2680968,
"lon": 25.6492228,
"coord_source": "geoapify",
"matched_address": "Nelijärve, 73605 Aegviidu alev, Eesti",
"confidence": 0.9
},
"Allika põik, Roela alevik, Vinni vald, Lääne-Viru maakond, Eesti": {
"lat": 59.1655451,
"lon": 26.5918697,
"coord_source": "geoapify",
"matched_address": "Allika põik, 46602 Roela alevik, Eesti",
"confidence": 1.0
},
"Pae tn, Altküla, Jõhvi vald, Ida-Viru maakond, Eesti": {
"lat": 59.4119609,
"lon": 27.4852474,
"coord_source": "geoapify",
"matched_address": "Altküla, 41713 Jõhvi vald, Eesti",
"confidence": 0.5
},
"Laulasmaa küla, Lääne-Harju vald, Harju maakond, Eesti": {
"lat": 59.3709546,
"lon": 24.2422503,
"coord_source": "geoapify",
"matched_address": "Laulasmaa küla, Eesti",
"confidence": 1.0
},
"Liivi küla, Lääne-Nigula vald, Lääne maakond, Eesti": {
"lat": 58.853816,
"lon": 23.9629089,
"coord_source": "geoapify",
"matched_address": "Liivi küla, Eesti",
"confidence": 0.5
},
"Nüpli küla, Otepää vald, Valga maakond, Eesti": {
"lat": 58.0284594,
"lon": 26.4912338,
"coord_source": "geoapify",
"matched_address": "Nüpli küla, 67408 Otepää vald, Eesti",
"confidence": 1.0
},
"Avispea küla, Väike-Maarja vald, Lääne-Viru maakond, Eesti": {
"lat": 59.125296,
"lon": 26.4252221,
"coord_source": "geoapify",
"matched_address": "Avispea küla, 46208 Väike-Maarja vald, Eesti",
"confidence": 1.0
},
"Luke küla, Nõo vald, Tartu maakond, Eesti": {
"lat": 58.2395505,
"lon": 26.5409089,
"coord_source": "geoapify",
"matched_address": "Luke küla, 61614 Nõo vald, Eesti",
"confidence": 1.0
},
"Karujärve kämping, 93562 Paiküla, Saaremaa vald, Saare maakond, Eesti": {
"lat": 58.3771159,
"lon": 22.2300386,
"coord_source": "geoapify",
"matched_address": "Karujärve kämping, Kärla — Karujärve, Paiküla, 93562 Saaremaa vald, Eesti",
"confidence": 1.0
},
"Pandivere küla, Väike-Maarja vald, Lääne-Viru maakond, Eesti": {
"lat": 59.1654436,
"lon": 26.3007254,
"coord_source": "geoapify",
"matched_address": "Pandivere küla, 46224 Väike-Maarja vald, Eesti",
"confidence": 1.0
},
"Eipri küla, Väike-Maarja vald, Lääne-Viru maakond, Eesti": {
"lat": 59.1487015,
"lon": 26.366315,
"coord_source": "geoapify",
"matched_address": "Eipri küla, 46210 Väike-Maarja vald, Eesti",
"confidence": 1.0
},
"Lohusaare tee 9, Laulasmaa küla, Lääne-Harju vald, Harju maakond, Eesti": {
"lat": 59.380106,
"lon": 24.226608,
"coord_source": "geoapify",
"matched_address": "Lohusaare tee 9, 76702 Laulasmaa küla, Eesti",
"confidence": 1.0
},
"Pahkla küla, Kohila vald, Rapla maakond, Eesti": {
"lat": 59.1938925,
"lon": 24.8722622,
"coord_source": "geoapify",
"matched_address": "Pahkla küla, 79742 Kohila vald, Eesti",
"confidence": 0.5
},
"Uuri küla, Kuusalu vald, Harju maakond, Eesti": {
"lat": 59.4872986,
"lon": 25.5611568,
"coord_source": "geoapify",
"matched_address": "Uuri küla, Jõelähtme — Kemba, 74640 Kuusalu vald, Eesti",
"confidence": 1.0
},
"Kalda tn 12e, 20103 Narva linn, Eesti": {
"lat": 59.3638251,
"lon": 28.2019674,
"coord_source": "geoapify",
"matched_address": "Kalda 12e, 20103 Narva, Eesti",
"confidence": 1.0
},
"Tänassilma küla, Saku vald, Harju maakond, Eesti": {
"lat": 59.3403023,
"lon": 24.6342464,
"coord_source": "geoapify",
"matched_address": "Tänassilma küla, Eesti",
"confidence": 1.0
},
"Pirnipuu pst, Maardu linn, Eesti": {
"lat": 59.4781553,
"lon": 24.9307925,
"coord_source": "geoapify",
"matched_address": "Pirnipuu pst, 74117 Maardu linn, Eesti",
"confidence": 1.0
},
"Rausvere küla, Alutaguse vald, Ida-Viru maakond Vasavere küla, Alutaguse vald, Ida-Viru maakond, Eesti": {
"lat": 59.1508089,
"lon": 27.481186,
"coord_source": "geoapify",
"matched_address": "Alutaguse vald, Eesti",
"confidence": 1.0
},
"Klooga alevik, Lääne-Harju vald, Harju maakond, Eesti": {
"lat": 59.3204946,
"lon": 24.2367683,
"coord_source": "geoapify",
"matched_address": "Klooga alevik, Eesti",
"confidence": 1.0
},
"Prillimäe alevik, Kohila vald, Rapla maakond, Eesti": {
"lat": 59.1784655,
"lon": 24.7962085,
"coord_source": "geoapify",
"matched_address": "Prillimäe alevik, Eesti",
"confidence": 1.0
},
"Karjamaa küla, Alutaguse vald, Ida-Viru maakond, Eesti": {
"lat": 59.0411869,
"lon": 27.4803946,
"coord_source": "geoapify",
"matched_address": "Karjamaa küla, 41002 Alutaguse vald, Eesti",
"confidence": 1.0
},
"Harju maakond, Eesti": {
"lat": 59.409009,
"lon": 24.7369572,
"coord_source": "geoapify",
"matched_address": "Harju maakond, Eesti",
"confidence": 1.0
},
"Pikk tn 33, 64001 Värska alevik, Setomaa vald, Võru maakond, Eesti": {
"lat": 57.946536,
"lon": 27.646237,
"coord_source": "geoapify",
"matched_address": "Pikk Tänav 33, 64001 Värska alevik, Eesti",
"confidence": 1.0
},
"Kõidama küla, Põhja-Sakala vald, Viljandi maakond, Eesti": {
"lat": 58.5363518,
"lon": 25.5027495,
"coord_source": "geoapify",
"matched_address": "Kõidama küla, 71504 Põhja-Sakala vald, Eesti",
"confidence": 1.0
},
"Olustvere alevik, Põhja-Sakala vald, Viljandi maakond, Eesti": {
"lat": 58.5535157,
"lon": 25.5609811,
"coord_source": "geoapify",
"matched_address": "Olustvere alevik, 70401 Põhja-Sakala vald, Eesti",
"confidence": 1.0
},
"Kelvingi küla, Viimsi vald, Harju maakond, Eesti": {
"lat": 59.5495639,
"lon": 24.838239,
"coord_source": "geoapify",
"matched_address": "Kelvingi küla, Eesti",
"confidence": 1.0
},
"Nõmme linnaosa, Tallinn, Eesti": {
"lat": 59.378524,
"lon": 24.684124,
"coord_source": "geoapify",
"matched_address": "Nõmme, Tallinn, Eesti",
"confidence": 1.0
},
"Järlepa küla, Rapla vald, Rapla maakond, Eesti": {
"lat": 59.1364221,
"lon": 24.9379528,
"coord_source": "geoapify",
"matched_address": "Järlepa küla, 79411 Rapla vald, Eesti",
"confidence": 1.0
},
"Maardu linn, Eesti": {
"lat": 59.468192,
"lon": 24.9896751,
"coord_source": "geoapify",
"matched_address": "Maardu linn, Eesti",
"confidence": 1.0
},
"Vääna küla, Harku vald, Harju maakond, Eesti": {
"lat": 59.3909052,
"lon": 24.4159265,
"coord_source": "geoapify",
"matched_address": "Vääna küla, Eesti",
"confidence": 0.5
},
"Sutlepa küla / Sutlep, Lääne-Nigula vald, Lääne maakond, Eesti": {
"lat": 59.046187,
"lon": 23.593638,
"coord_source": "geoapify",
"matched_address": "Sutlepa kalmistu, 91230 Lääne-Nigula vald, Eesti",
"confidence": 0.5
},
"Urvaste küla, Antsla vald, Võru maakond, Eesti": {
"lat": 57.9145071,
"lon": 26.5829128,
"coord_source": "geoapify",
"matched_address": "Urvaste küla, Eesti",
"confidence": 0.5
},
"Paekna küla, Kiili vald, Harju maakond, Eesti": {
"lat": 59.2705207,
"lon": 24.8369788,
"coord_source": "geoapify",
"matched_address": "Paekna küla, 75408 Kiili vald, Eesti",
"confidence": 0.5
},
"Ihasalu küla, Jõelähtme vald, Harju maakond, Eesti": {
"lat": 59.51908,
"lon": 25.190025,
"coord_source": "geoapify",
"matched_address": "74203 Jõelähtme vald, Eesti",
"confidence": 0.5
},
"Soldina küla, Narva-Jõesuu linn, Eesti": {
"lat": 59.3700716,
"lon": 28.0751119,
"coord_source": "geoapify",
"matched_address": "Soldina küla, Eesti",
"confidence": 1.0
},
"Aespa alevik, Kohila vald, Rapla maakond Vilivere küla, Kohila vald, Rapla maakond, Eesti": {
"lat": 59.1528591,
"lon": 24.7087696,
"coord_source": "geoapify",
"matched_address": "Kohila vald, Eesti",
"confidence": 1.0
},
"Jausa küla, Hiiumaa vald, Hiiu maakond, Eesti": {
"lat": 58.7732379,
"lon": 22.6985696,
"coord_source": "geoapify",
"matched_address": "Jausa küla, 92003 Hiiumaa vald, Eesti",
"confidence": 1.0
},
"Laupa küla, Türi vald, Järva maakond, Eesti": {
"lat": 58.7693899,
"lon": 25.3625189,
"coord_source": "geoapify",
"matched_address": "Laupa küla, 72102 Türi vald, Eesti",
"confidence": 0.5
},
"Kuri küla, Hiiumaa vald, Hiiu maakond, Eesti": {
"lat": 58.9516328,
"lon": 22.9249441,
"coord_source": "geoapify",
"matched_address": "Kuri küla, 92337 Hiiumaa vald, Eesti",
"confidence": 1.0
},
"Peetri alevik, Rae vald, Harju maakond, Eesti": {
"lat": 59.3975177,
"lon": 24.8071173,
"coord_source": "geoapify",
"matched_address": "Peetri alevik, Eesti",
"confidence": 1.0
},
"Jõõpre küla, Pärnu linn, Eesti": {
"lat": 58.485951,
"lon": 24.335729,
"coord_source": "geoapify",
"matched_address": "Jõõpre küla, 88303 Pärnu linn, Eesti",
"confidence": 0.5
},
"Karilatsi küla, Põlva vald, Põlva maakond, Eesti": {
"lat": 58.1106546,
"lon": 26.9217896,
"coord_source": "geoapify",
"matched_address": "Karilatsi küla, 63505 Kanepi vald, Eesti",
"confidence": 1.0
},
"Uuesalu, Rae vald, Harju maakond, Eesti": {
"lat": 59.3623046,
"lon": 24.8216476,
"coord_source": "geoapify",
"matched_address": "Uuesalu küla, 75331 Rae vald, Eesti",
"confidence": 0.5
},
"Suurpea küla, Kuusalu vald, Harju maakond, Eesti": {
"lat": 59.628353,
"lon": 25.683476,
"coord_source": "geoapify",
"matched_address": "Suurpea sadam, 74812 Kuusalu vald, Eesti",
"confidence": 0.5
},
"Rae vald, Harju maakond, Eesti": {
"lat": 59.3322228,
"lon": 24.9538016,
"coord_source": "geoapify",
"matched_address": "Rae vald, Eesti",
"confidence": 1.0
},
"Soodevahe küla, Rae vald, Harju maakond, Eesti": {
"lat": 59.4121588,
"lon": 24.8958453,
"coord_source": "geoapify",
"matched_address": "Soodevahe küla, Eesti",
"confidence": 1.0
},
"Päkste küla, Kastre vald, Tartu maakond, Eesti": {
"lat": 58.2900698,
"lon": 26.8732875,
"coord_source": "geoapify",
"matched_address": "Päkste küla, 62119 Kastre vald, Eesti",
"confidence": 1.0
},
"Pikk tn 41, 64001 Värska alevik, Setomaa vald, Võru maakond, Eesti": {
"lat": 57.938722,
"lon": 27.651997,
"coord_source": "geoapify",
"matched_address": "Pikk Tänav 41, 64001 Värska alevik, Eesti",
"confidence": 1.0
},
"Piira küla, Vinni vald, Lääne-Viru maakond, Eesti": {
"lat": 59.3304675,
"lon": 26.4034483,
"coord_source": "geoapify",
"matched_address": "Piira küla, 46607 Vinni vald, Eesti",
"confidence": 1.0
},
"Kallaste linn, Peipsiääre vald, Tartu maakond, Eesti": {
"lat": 58.6631199,
"lon": 27.1631379,
"coord_source": "geoapify",
"matched_address": "Kallaste linn, Eesti",
"confidence": 1.0
},
"Sinimäe alevik, Narva-Jõesuu linn, Eesti": {
"lat": 59.3720006,
"lon": 27.8740873,
"coord_source": "geoapify",
"matched_address": "Sinimäe alevik, Eesti",
"confidence": 1.0
},
"Himma küla, Põlva vald, Põlva maakond, Eesti": {
"lat": 57.9836079,
"lon": 27.0691634,
"coord_source": "geoapify",
"matched_address": "Himma küla, 63002 Põlva vald, Eesti",
"confidence": 1.0
},
"Vana-Narva mnt 28, 74609 Kuusalu küla, Kuusalu vald, Harju maakond, Eesti": {
"lat": 59.4506701,
"lon": 25.4193775,
"coord_source": "geoapify",
"matched_address": "Vana-Narva mnt 28, Kuusalu küla, 74609 Kuusalu, Eesti",
"confidence": 1.0
},
"Aarna küla, Põlva vald, Põlva maakond, Eesti": {
"lat": 58.0866508,
"lon": 26.9618437,
"coord_source": "geoapify",
"matched_address": "Aarna küla, 63203 Põlva vald, Eesti",
"confidence": 1.0
},
"Arkna küla, Rakvere vald, Lääne-Viru maakond, Eesti": {
"lat": 59.3964776,
"lon": 26.3948545,
"coord_source": "geoapify",
"matched_address": "Arkna küla, 44419 Rakvere vald, Eesti",
"confidence": 1.0
},
"Ranna tn 12, 41702 Toila alevik, Jõhvi vald, Ida-Viru maakond, Eesti": {
"lat": 59.4244449,
"lon": 27.5157765,
"coord_source": "geoapify",
"matched_address": "Ranna 12, Toila alevik, 41702 Toila, Eesti",
"confidence": 1.0
},
"Rämsi küla, Elva vald, Tartu maakond, Eesti": {
"lat": 58.3821783,
"lon": 26.3726254,
"coord_source": "geoapify",
"matched_address": "Rämsi küla, 61313 Elva vald, Eesti",
"confidence": 1.0
},
"Kudruküla, Narva-Jõesuu linn, Eesti": {
"lat": 59.4580345,
"lon": 28.0476218,
"coord_source": "geoapify",
"matched_address": "Kudruküla, 29022 Narva-Jõesuu linn, Eesti",
"confidence": 1.0
},
"Viru-Nigula alevik, Viru-Nigula vald, Lääne-Viru maakond, Eesti": {
"lat": 59.4456872,
"lon": 26.6927388,
"coord_source": "geoapify",
"matched_address": "Viru-Nigula alevik, Eesti",
"confidence": 1.0
}
}